{
  "generated_from": "G:/My Drive/DATENPUNK/Open_Mics/data/processed/events_flat.csv",
  "events_total": 10,
  "events_missing_coords": 0,
  "events": [
    {
      "weekday": "Thursday",
      "location": "Auer & Co., Zürich, Zürich (CH)",
      "time": "19:00",
      "cost": "",
      "language": "English",
      "regularity": "recurring",
      "title": "Thursday Open Mic Comedy, Zurich in Zürich",
      "url": "https://eventfrog.ch/en/p/groups/thursday-open-mic-comedy-zurich-7322895273490950362.html",
      "lat": 47.38478,
      "lon": 8.5336683
    },
    {
      "weekday": "Tuesday",
      "location": "Mama Shelter, Zürich (CH)",
      "time": "20:00",
      "cost": "",
      "language": "",
      "regularity": "recurring",
      "title": "Color Comedy Open Mic: Zürich’s Funniest Stand-Up in Zürich",
      "url": "https://eventfrog.ch/en/p/groups/color-comedy-open-mic-zuerichs-funniest-stand-up-7405948073317250257.html",
      "lat": 47.410819,
      "lon": 8.5439538
    },
    {
      "weekday": "Wednesday",
      "location": "Auer & Co., Zürich, Zürich (CH)",
      "time": "19:30",
      "cost": "",
      "language": "English",
      "regularity": "recurring",
      "title": "Wednesday Open Mic Comedy, Zurich in Zürich",
      "url": "https://eventfrog.ch/en/p/groups/wednesday-open-mic-comedy-zurich-7322872166394914763.html",
      "lat": 47.38478,
      "lon": 8.5336683
    },
    {
      "weekday": "Tuesday, Friday, Sunday",
      "location": "VIOR, Zürich (CH)",
      "time": "15:00",
      "cost": "",
      "language": "Swiss German",
      "regularity": "recurring",
      "title": "Dini Muetter Comedy - Open Mic in Zürich",
      "url": "https://eventfrog.ch/en/p/groups/dini-muetter-comedy-open-mic-7402400053803883617.html",
      "lat": 47.3744489,
      "lon": 8.5410422
    },
    {
      "weekday": "Tuesday",
      "location": "Gleis, Zürich (CH)",
      "time": "19:30",
      "cost": "",
      "language": "English",
      "regularity": "recurring",
      "title": "Funny Women Zurich - Comedy Open Mic in Zürich",
      "url": "https://eventfrog.ch/en/p/groups/funny-women-zurich-comedy-open-mic-7256690401515381606.html",
      "lat": 47.381465,
      "lon": 8.5296408
    },
    {
      "weekday": "Monday",
      "location": "Regenbogen Bar, Rosengasse 6, 8001, Zürich",
      "time": "20:00",
      "cost": "CHF 5.0 / CHF 8.0",
      "language": "English",
      "regularity": "recurring",
      "title": "COMEDY CONNECTION – Stand-up Comedy Open Mic Zurich",
      "url": "https://eventfrog.ch/en/p/theatre-stage/comedy-cabaret/comedy-connection-stand-up-comedy-open-mic-zurich-7439773372123216028.html",
      "lat": 47.3730958,
      "lon": 8.5432094
    },
    {
      "weekday": "Thursday",
      "location": "ROBIN's Coffee, Zürich (CH)",
      "time": "19:30",
      "cost": "",
      "language": "English",
      "regularity": "recurring",
      "title": "IN YOUR FACE - English Stand-Up Comedy Open Mic in Zurich in Zürich",
      "url": "https://eventfrog.ch/en/p/groups/in-your-face-english-stand-up-comedy-open-mic-in-zurich-7132091334890862636.html",
      "lat": 47.3757594,
      "lon": 8.5444649
    },
    {
      "weekday": "Thursday, Saturday",
      "location": "Monroe, Zürich (CH)",
      "time": "20:00",
      "cost": "",
      "language": "Spanish",
      "regularity": "recurring",
      "title": "La Tarima - Comedia en Español",
      "url": "https://eventfrog.ch/en/p/groups/la-tarima-comedia-en-espanol-7415721905318030787.html",
      "lat": 47.3774661,
      "lon": 8.5279076
    },
    {
      "weekday": "Tuesday",
      "location": "ROBIN'S bar & coffee, Zürich (CH)",
      "time": "19:30",
      "cost": "",
      "language": "English",
      "regularity": "recurring",
      "title": "Jokes, Jokes, Jokes - English Stand-up comedy show in Zürich",
      "url": "https://eventfrog.ch/en/p/groups/jokes-jokes-jokes-english-stand-up-comedy-show-7413564801610218198.html",
      "lat": 47.3744489,
      "lon": 8.5410422
    },
    {
      "weekday": "Tuesday",
      "location": "KON-TIKI, Niederdorfstrasse 24, 8001, Zürich",
      "time": "19:30",
      "cost": "CHF 15.0",
      "language": "English",
      "regularity": "recurring",
      "title": "Kon-Tiki Comedy",
      "url": "https://eventfrog.ch/en/p/theatre-stage/comedy-cabaret/kon-tiki-comedy-april-14th-7441817235675421515.html",
      "lat": 47.3738276,
      "lon": 8.5437708
    }
  ]
}